{"240001":{"id":"240001","name":"NORTH MEMORIAL MEDICAL CENTER","street":"3300 OAKDALE NORTH","city":"ROBBINSDALE","state":"MN","zip":"55422","hrr":"MN - Minneapolis","lng":-93.322241,"lat":45.014563},"240002":{"id":"240002","name":"ESSENTIA HEALTH ST MARY'S MEDICAL CENTER","street":"407 E 3RD ST","city":"DULUTH","state":"MN","zip":"55805","hrr":"MN - Duluth","lng":-92.096332,"lat":46.792887},"240004":{"id":"240004","name":"HENNEPIN COUNTY MEDICAL CENTER","street":"701 PARK AVENUE","city":"MINNEAPOLIS","state":"MN","zip":"55415","hrr":"MN - Minneapolis","lng":-93.26305,"lat":44.97241},"240006":{"id":"240006","name":"OLMSTED MEDICAL CENTER","street":"1650 FOURTH STREET SOUTHEAST","city":"ROCHESTER","state":"MN","zip":"55904","hrr":"MN - Rochester","lng":-92.44036,"lat":44.02085},"240010":{"id":"240010","name":"MAYO CLINIC - SAINT MARYS HOSPITAL","street":"1216 SECOND STREET WEST","city":"ROCHESTER","state":"MN","zip":"55902","hrr":"MN - Rochester","lng":-92.48209,"lat":44.02164},"240014":{"id":"240014","name":"NORTHFIELD HOSPITAL","street":"2000 NORTH AVENUE","city":"NORTHFIELD","state":"MN","zip":"55057","hrr":"MN - Minneapolis","lng":-93.192442,"lat":44.47332},"240018":{"id":"240018","name":"FAIRVIEW RED WING HOSPITAL","street":"701 FAIRVIEW BOULEVARD, PO BOX 95","city":"RED WING","state":"MN","zip":"55066","hrr":"MN - Rochester","lng":-92.57532,"lat":44.55972},"240019":{"id":"240019","name":"ESSENTIA HEALTH DULUTH","street":"502 EAST SECOND STREET","city":"DULUTH","state":"MN","zip":"55805","hrr":"MN - Duluth","lng":-92.094135,"lat":46.79314},"240020":{"id":"240020","name":"CAMBRIDGE MEDICAL CENTER","street":"701 SOUTH DELLWOOD","city":"CAMBRIDGE","state":"MN","zip":"55008","hrr":"MN - Minneapolis","lng":-93.228932,"lat":45.561073},"240022":{"id":"240022","name":"SANFORD  WORTHINGTON MEDICAL CENTER","street":"1018 SIXTH AVENUE PO BOX 997","city":"WORTHINGTON","state":"MN","zip":"56187","hrr":"SD - Sioux Falls","lng":-95.59839,"lat":43.62239},"240030":{"id":"240030","name":"DOUGLAS COUNTY HOSPITAL","street":"111 17TH AVENUE EAST","city":"ALEXANDRIA","state":"MN","zip":"56308","hrr":"MN - Minneapolis","lng":-95.37689,"lat":45.87264},"240036":{"id":"240036","name":"ST CLOUD HOSPITAL","street":"1406 6TH AVE NORTH","city":"SAINT CLOUD","state":"MN","zip":"56303","hrr":"MN - St. Cloud","lng":-94.17019,"lat":45.57482},"240038":{"id":"240038","name":"UNITED HOSPITAL","street":"333 NORTH SMITH","city":"SAINT PAUL","state":"MN","zip":"55102","hrr":"MN - St. Paul","lng":-93.10739,"lat":44.942573},"240040":{"id":"240040","name":"UNIVERSITY MEDICAL CENTER-MESABI/ MESABA CLINICS","street":"750 EAST 34TH ST","city":"HIBBING","state":"MN","zip":"55746","hrr":"MN - Minneapolis","lng":-92.931714,"lat":47.411145},"240043":{"id":"240043","name":"MAYO CLINIC HEALTH SYSTEM - ALBERT LEA","street":"404 WEST FOUNTAIN STREET","city":"ALBERT LEA","state":"MN","zip":"56007","hrr":"MN - Rochester","lng":-93.372522,"lat":43.65153},"240044":{"id":"240044","name":"WINONA HEALTH SERVICES","street":"855 MANKATO AVENUE","city":"WINONA","state":"MN","zip":"55987","hrr":"WI - La Crosse","lat":44.033478,"lng":-91.623724},"240047":{"id":"240047","name":"ST LUKES HOSPITAL","street":"915 E 1ST ST","city":"DULUTH","state":"MN","zip":"55805","hrr":"MN - Duluth","lng":-92.087917,"lat":46.796343},"240050":{"id":"240050","name":"FAIRVIEW LAKES  HEALTH SERVICES","street":"5200 FAIRVIEW BOULEVARD","city":"WYOMING","state":"MN","zip":"55092","hrr":"MN - Minneapolis","lng":-92.997927,"lat":45.322372},"240052":{"id":"240052","name":"LAKE REGION HEALTHCARE CORPORATION","street":"712 SOUTH CASCADE","city":"FERGUS FALLS","state":"MN","zip":"56537","hrr":"ND - Fargo/Moorhead MN","lng":-96.07244,"lat":46.27629},"240053":{"id":"240053","name":"PARK NICOLLET METHODIST HOSPITAL","street":"6500 EXCELSIOR BLVD","city":"SAINT LOUIS PAR","state":"MN","zip":"55426","hrr":"MN - Minneapolis","lng":-93.361789,"lat":44.927056},"240056":{"id":"240056","name":"RIDGEVIEW MEDICAL CENTER","street":"500 SOUTH MAPLE STREET","city":"WACONIA","state":"MN","zip":"55387","hrr":"MN - Minneapolis","lng":-93.79075,"lat":44.84353},"240057":{"id":"240057","name":"ABBOTT NORTHWESTERN HOSPITAL","street":"800 EAST 28TH STREET","city":"MINNEAPOLIS","state":"MN","zip":"55407","hrr":"MN - Minneapolis","lng":-93.262629,"lat":44.95195},"240059":{"id":"240059","name":"REGINA MEDICAL CENTER","street":"1175 NININGER ROAD","city":"HASTINGS","state":"MN","zip":"55033","hrr":"MN - St. Paul","lng":-92.87182,"lat":44.74736},"240061":{"id":"240061","name":"MAYO CLINIC METHODIST HOSPITAL","street":"201 WEST CENTER STREET","city":"ROCHESTER","state":"MN","zip":"55902","hrr":"MN - Rochester","lng":-92.46586,"lat":44.02347},"240063":{"id":"240063","name":"ST JOSEPH'S HOSPITAL","street":"45 WEST 10TH STREET","city":"SAINT PAUL","state":"MN","zip":"55102","hrr":"MN - St. Paul","lng":-93.099878,"lat":44.949179},"240064":{"id":"240064","name":"GRAND ITASCA CLINIC AND HOSPITAL","street":"1601 GOLF COURSE ROAD","city":"GRAND RAPIDS","state":"MN","zip":"55744","hrr":"MN - Minneapolis","lng":-93.55485,"lat":47.221026},"240066":{"id":"240066","name":"LAKEVIEW MEMORIAL HOSPITAL","street":"927 WEST CHURCHILL STREET","city":"STILLWATER","state":"MN","zip":"55082","hrr":"MN - St. Paul","lng":-92.817583,"lat":45.04815},"240069":{"id":"240069","name":"OWATONNA HOSPITAL","street":"2250 26TH STREET NORTHWEST","city":"OWATONNA","state":"MN","zip":"55060","hrr":"MN - Rochester","lng":-93.250861,"lat":44.109689},"240071":{"id":"240071","name":"DISTRICT ONE HOSPITAL","street":"200 STATE AVENUE","city":"FARIBAULT","state":"MN","zip":"55021","hrr":"MN - Minneapolis","lng":-93.255959,"lat":44.28873},"240075":{"id":"240075","name":"ESSENTIA HEALTH ST JOSEPH'S MEDICAL CENTER","street":"523 NORTH 3RD STREET","city":"BRAINERD","state":"MN","zip":"56401","hrr":"MN - Minneapolis","lng":-94.205137,"lat":46.361441},"240076":{"id":"240076","name":"BUFFALO HOSPITAL","street":"303 CATLIN ST","city":"BUFFALO","state":"MN","zip":"55313","hrr":"MN - Minneapolis","lng":-93.871323,"lat":45.193206},"240078":{"id":"240078","name":"FAIRVIEW SOUTHDALE HOSPITAL","street":"6401 FRANCE AVENUE SOUTH","city":"EDINA","state":"MN","zip":"55435","hrr":"MN - Minneapolis","lng":-93.328864,"lat":44.886471},"240080":{"id":"240080","name":"UNIVERSITY OF MINNESOTA  MEDICAL CENTER, FAIRVIEW","street":"2450 RIVERSIDE AVENUE","city":"MINNEAPOLIS","state":"MN","zip":"55454","hrr":"MN - Minneapolis","lng":-93.237089,"lat":44.965897},"240084":{"id":"240084","name":"VIRGINIA REGIONAL MEDICAL CENTER","street":"901 9TH STREET NORTH","city":"VIRGINIA","state":"MN","zip":"55792","hrr":"MN - Duluth","lng":-92.547567,"lat":47.530691},"240088":{"id":"240088","name":"RICE MEMORIAL HOSPITAL","street":"301 BECKER AVE SW","city":"WILLMAR","state":"MN","zip":"56201","hrr":"MN - Minneapolis","lng":-95.04675,"lat":45.12045},"240093":{"id":"240093","name":"MAYO CLINIC HEALTH SYSTEM - MANKATO","street":"1025 MARSH STREET BOX 8673","city":"MANKATO","state":"MN","zip":"56002","hrr":"MN - Minneapolis","lng":-93.985255,"lat":44.1646},"240100":{"id":"240100","name":"SANFORD BEMIDJI MEDICAL CENTER","street":"1300 ANNE ST NW","city":"BEMIDJI","state":"MN","zip":"56601","hrr":"ND - Fargo/Moorhead MN","lng":-94.897418,"lat":47.505002},"240101":{"id":"240101","name":"ESSENTIA HEALTH ST MARYS","street":"1027 WASHINGTON AVE","city":"DETROIT LAKES","state":"MN","zip":"56501","hrr":"ND - Fargo/Moorhead MN","lng":-95.845438,"lat":46.815226},"240104":{"id":"240104","name":"ST FRANCIS REGIONAL MEDICAL CENTER","street":"1455 ST FRANCIS AVENUE","city":"SHAKOPEE","state":"MN","zip":"55379","hrr":"MN - Minneapolis","lng":-93.50298,"lat":44.77008},"240106":{"id":"240106","name":"REGIONS HOSPITAL","street":"640 JACKSON STREET","city":"SAINT PAUL","state":"MN","zip":"55101","hrr":"MN - St. Paul","lng":-93.095781,"lat":44.954842},"240115":{"id":"240115","name":"MERCY HOSPITAL","street":"4050 COON RAPIDS BLVD","city":"COON RAPIDS","state":"MN","zip":"55433","hrr":"MN - Minneapolis","lng":-93.36894,"lat":45.184115},"240117":{"id":"240117","name":"MAYO CLINIC HEALTH SYSTEM - AUSTIN","street":"1000 FIRST DRIVE NORTHWEST","city":"AUSTIN","state":"MN","zip":"55912","hrr":"MN - Rochester","lng":-92.978442,"lat":43.674372},"240132":{"id":"240132","name":"UNITY HOSPITAL","street":"550 OSBORNE ROAD","city":"FRIDLEY","state":"MN","zip":"55432","hrr":"MN - Minneapolis","lng":-93.257018,"lat":45.107929},"240141":{"id":"240141","name":"FAIRVIEW NORTHLAND REGIONAL HOSPITAL","street":"911 NORTHLAND DR","city":"PRINCETON","state":"MN","zip":"55371","hrr":"MN - Minneapolis","lng":-93.588433,"lat":45.558247},"240166":{"id":"240166","name":"MAYO CLINIC HEALTH SYSTEM - FAIRMONT","street":"835 JOHNSON STREET, PO BOX 835","city":"FAIRMONT","state":"MN","zip":"56031","hrr":"MN - Minneapolis","lng":-94.449624,"lat":43.63764},"240187":{"id":"240187","name":"HUTCHINSON AREA HEALTH CARE","street":"1095 HIGHWAY 15 SOUTH","city":"HUTCHINSON","state":"MN","zip":"55350","hrr":"MN - Minneapolis","lng":-94.375599,"lat":44.857156},"240207":{"id":"240207","name":"FAIRVIEW RIDGES HOSPITAL","street":"201 EAST NICOLLET BOULEVARD","city":"BURNSVILLE","state":"MN","zip":"55337","hrr":"MN - Minneapolis","lng":-93.27405,"lat":44.75009},"240210":{"id":"240210","name":"HEALTHEAST ST JOHN'S HOSPITAL","street":"1575 BEAM AVENUE","city":"MAPLEWOOD","state":"MN","zip":"55109","hrr":"MN - St. Paul","lng":-93.035219,"lat":45.028154},"240213":{"id":"240213","name":"HEALTHEAST WOODWINDS HOSPITAL","street":"1925 WOODWINDS DRIVE","city":"WOODBURY","state":"MN","zip":"55125","hrr":"MN - St. Paul","lng":-92.980074,"lat":44.920415},"240214":{"id":"240214","name":"MAPLE GROVE HOSPITAL","street":"9875 HOSPITAL DRIVE","city":"MAPLE GROVE","state":"MN","zip":"55369","hrr":"MN - Minneapolis","lng":-93.479515,"lat":45.13341}}